[
    {
        "title": "Хепи Бъкстон",
        "coordinates": [42.667122, 23.281657]
    },
    {
        "title": "Хепи Виктория",
        "coordinates": [42.688600, 23.308027]
    },
    {
        "title": "Хепи Саут Парк",
        "coordinates": [42.670071, 23.313399]
    },
    {
        "title": "Хепи Будапеща",
        "coordinates": [42.692017, 23.326259]
    },
    {
        "title": "Хепи Мол София",
        "coordinates": [42.6982608, 23.3078595]
    },
    {
        "title": "Хепи Младост",
        "coordinates": [42.6481687, 23.3793724]
    },
    {
        "title": "Хепи Света Неделя",
        "coordinates": [42.696606, 23.3204766]
    },
    {
        "title": "Хепи Люлин",
        "coordinates": [42.713895, 23.264476]
    },
    {
        "title": "Хепи Парадайс",
        "coordinates": [42.6570524, 23.3142243]
    },
    {
        "title": "Happy Изток",
        "coordinates": [42.673136, 23.348732]
    }
]

